     2.11           OBSERVATION DATA    G (GPS)             RINEX VERSION / TYPE
teqc  2011Oct11                         20111023 09:34:07UTCPGM / RUN BY / DATE
Linux 2.4.20-8|Pentium IV|gcc -static|Linux|486/DX+         COMMENT
   0.000      (antenna height)                              COMMENT
 +48.78070287 (latitude)                                    COMMENT
  +9.17158381 (longitude)                                   COMMENT
0326.353      (elevation)                                   COMMENT
BIT 2 OF LLI FLAGS DATA COLLECTED UNDER A/S CONDITION       COMMENT
INSA (COGO code)                                            COMMENT
INSA                                                        MARKER NAME
INSA                                                        MARKER NUMBER
-Unknown-           -Unknown-                               OBSERVER / AGENCY
4925K35627          TRIMBLE NETR8       4.14                REC # / TYPE / VERS
n                   TRM55971.00     NONE                    ANT # / TYPE
  4157188.6232   671202.3189  4774769.4135                  APPROX POSITION XYZ
        0.0000        0.0000        0.0000                  ANTENNA: DELTA H/E/N
     1     1                                                WAVELENGTH FACT L1/2
     4    C1    L1    D1    S1                              # / TYPES OF OBSERV
    15                                                      LEAP SECONDS
 SNR is mapped to RINEX snr flag value [0-9]                COMMENT
  L1 & L2: min(max(int(snr_dBHz/6), 0), 9)                  COMMENT
  2011    10    21    21     0    0.0000000     GPS         TIME OF FIRST OBS
                                                            END OF HEADER
 11 10 21 21  0  0.0000000  0 11G13G32G17G20G04G07G23G31G10G30G02
  20155765.0784  105919197.42048       817.1844         49.6004
  24807272.2424  130363271.39747     -2984.4964         42.7004
  24583721.500   129188341.904 6     -3155.723          41.100
  22156274.0784  116432358.94747     -2734.5274         47.8004
  20893261.2584  109794764.97748       562.8324         50.5004
  24006470.539   126154961.773 7      3728.004          42.000
  20438748.2114  107406456.87448      -978.6214         51.4004
  25302810.977   132967108.753 6     -3258.719          40.000
  21910621.5554  115141275.85048      2638.1604         48.8004
  24859456.7274  130637340.19546      -315.5234         37.8004
  23734534.2194  124725786.40647      3218.8484         44.8004
 11 10 21 21  0  1.0000000  0 11G13G32G17G20G04G07G23G31G10G30G02
  20155610.1094  105918380.42148       816.9064         49.1004
  24807840.1954  130366255.89247     -2984.3124         42.6004
  24584321.805   129191497.666 6     -3155.578          40.800
  22156794.0004  116435093.43448     -2734.3914         48.0004
  20893154.6644  109794202.30248       562.5274         50.7004
  24005760.680   126151233.688 6      3728.238          41.100
  20438934.4454  107407435.53548      -978.7074         51.4004
  25303431.367   132970367.508 6     -3258.645          40.200
  21910119.1644  115138637.78348      2638.1174         49.1004
  24859516.8204  130637656.03046      -315.9224         38.3004
  23733921.7274  124722567.65347      3218.8634         45.1004
 11 10 21 21  0  2.0000000  0 11G13G32G17G20G04G07G23G31G10G30G02
  20155454.6414  105917564.18748       815.9224         49.3004
  24808407.3204  130369240.71347     -2984.9654         42.8004
  24584922.617   129194653.774 6     -3156.227          40.800
  22157314.5944  116437828.45648     -2735.2344         48.1004
  20893047.4614  109793640.55548       561.3594         50.2004
  24005051.914   126147505.979 6      3727.637          41.100
  20439120.5474  107408414.92548      -979.6094         51.1004
  25304051.570   132973626.750 6     -3259.383          40.200
  21909616.8364  115136000.19748      2637.4454         48.2004
  24859576.9774  130637972.80946      -317.0554         38.2004
  23733309.5944  124719349.43747      3218.0274         45.2004
 11 10 21 21  0  3.0000000  0 11G13G32G17G20G04G07G23G31G10G30G02
  20155299.4774  105916748.36748       815.5474         49.4004
  24808976.1174  130372225.41847     -2984.6604         42.6004
  24585524.063   129197809.775 6     -3156.055          41.300
  22157834.7664  116440563.57247     -2735.1294         47.8004
  20892940.7274  109793079.30748       560.9224         50.4004
  24004342.313   126143778.210 6      3727.648          41.400
  20439307.1094  107409394.61148      -979.8714         51.5004
  25304671.898   132976886.098 6     -3259.488          40.200
  21909115.0784  115133362.70348      2637.3634         48.1004
  24859637.7894  130638290.04246      -317.3554         38.8004
  23732697.1174  124716131.32647      3218.0084         44.9004
 11 10 21 21  0  4.0000000  0 11G13G32G17G20G04G07G23G31G10G30G02
  20155144.4454  105915933.19548       814.9224         49.6004
  24809544.1564  130375210.35247     -2984.9264         42.7004
  24586124.281   129200965.993 6     -3156.195          40.900
  22158355.5784  116443299.09147     -2735.5624         47.6004
  20892834.5314  109792518.84648       560.1844         50.8004
  24003633.516   126140050.666 7      3727.457          42.300
  20439493.8754  107410374.87648      -980.4064         51.4004
  25305292.766   132980145.822 6     -3259.809          40.300
  21908613.4224  115130725.59848      2637.0554         48.2004
  24859697.4844  130638608.06346      -318.3404         39.2004
  23732084.3524  124712913.65147      3217.5434         45.3004
 11 10 21 21  0  5.0000000  0 11G13G32G17G20G04G07G23G31G10G30G02
  20154989.3204  105915118.46248       814.5984         49.3004
  24810111.9454  130378195.22847     -2984.6724         42.7004
  24586724.430   129204122.212 6     -3156.184          40.900
  22158875.7814  116446034.77447     -2735.6804         47.7004
  20892727.6484  109791958.92748       559.7774         49.9004
  24002923.930   126136323.089 6      3727.691          41.800
  20439680.5084  107411355.47448      -980.6804         51.7004
  25305912.000   132983405.699 6     -3259.934          40.200
  21908111.7034  115128088.64848      2636.9384         48.1004
  24859758.2424  130638926.66446      -318.6374         39.2004
  23731472.6724  124709696.14547      3217.4964         45.1004
 11 10 21 21  0  6.0000000  0 11G13G32G17G20G04G07G23G31G10G30G02
  20154834.2584  105914304.31748       813.8014         49.3004
  24810680.2504  130381180.26847     -2985.0864         42.8004
  24587325.461   129207278.574 6     -3156.441          41.400
  22159396.1024  116448770.78647     -2736.2464         47.5004
  20892620.9844  109791399.71048       558.8674         49.9004
  24002214.344   126132595.712 6      3727.332          41.600
  20439867.1954  107412336.59648      -981.4614         51.9004
  25306533.125   132986665.883 6     -3260.402          39.900
  21907610.2114  115125452.00147      2636.4414         47.5004
  24859819.6724  130639245.97046      -319.7234         39.0004
  23730860.0394  124706478.97947      3217.0274         44.9004
 11 10 21 21  0  7.0000000  0 11G13G32G17G20G04G07G23G31G10G30G02
  20154679.3754  105913490.79248       813.2854         49.2004
  24811247.6564  130384165.41047     -2985.1174         42.2004
  24587926.258   129210435.113 6     -3156.676          41.800
  22159917.5164  116451507.11547     -2736.5474         47.2004
  20892514.8834  109790841.19548       558.2034         49.7004
  24001505.352   126128868.516 6      3727.051          41.300
  20440054.0004  107413318.23448      -981.9304         52.1004
  25307153.305   132989926.420 6     -3260.707          39.600
  21907108.5394  115122815.69447      2636.1094         47.8004
  24859880.2894  130639565.96646      -320.3524         39.4004
  23730247.9614  124703262.18347      3216.6174         44.9004
 11 10 21 21  0  8.0000000  0 11G13G32G17G20G04G07G23G31G10G30G02
  20154524.7664  105912677.68048       812.7344         49.2004
  24811816.2114  130387150.54247     -2985.2584         42.0004
  24588527.047   129213591.571 7     -3156.648          42.500
  22160437.7664  116454243.58247     -2736.7114         47.5004
  20892408.6804  109790283.22548       557.5084         49.6004
  24000795.656   126125141.287 7      3727.094          42.100
  20440240.5554  107414300.20748      -982.3124         51.6004
  25307773.648   132993187.056 6     -3260.863          39.800
  21906606.7584  115120179.52247      2635.9304         47.8004
  24859941.1954  130639886.52246      -321.0594         38.1004
  23729635.8444  124700045.55747      3216.3484         44.5004
 11 10 21 21  0  9.0000000  0 11G13G32G17G20G04G07G23G31G10G30G02
  20154370.0314  105911865.13348       811.9964         49.0004
  24812384.1334  130390135.72847     -2985.5044         42.1004
  24589127.305   129216748.148 7     -3156.902          42.500
  22160959.0554  116456980.34347     -2737.1564         47.6004
  20892302.8594  109789725.93448       556.7114         50.0004
  24000086.930   126121414.157 6      3726.766          41.800
  20440427.7114  107415282.63848      -982.9804         51.8004
  25308394.359   132996447.979 6     -3261.473          39.700
  21906104.7974  115117543.61248      2635.5354         48.5004
  24860002.0704  130640207.73746      -321.8124         38.7004
  23729023.3364  124696829.21147      3215.9734         44.6004
 11 10 21 21  0 10.0000000  0 11G13G32G17G20G04G07G23G31G10G30G02
  20154215.6644  105911053.11348       811.8324         48.9004
  24812951.6564  130393120.98347     -2985.2114         42.1004
  24589728.875   129219904.805 7     -3156.707          42.700
  22161479.8054  116459717.37747     -2737.1174         47.2004
  20892196.8284  109789169.28148       556.4104         49.9004
  23999377.469   126117687.134 6      3727.199          41.800
  20440614.8984  107416265.51048      -982.9924         51.7004
  25309014.438   132999709.118 6     -3261.086          39.800
  21905603.4694  115114907.96648      2635.5434         48.3004
  24860063.9224  130640529.57146      -322.0354         39.4004
  23728411.7274  124693613.17047      3216.0634         44.6004
 11 10 21 21  0 11.0000000  0 11G13G32G17G20G04G07G23G31G10G30G02
  20154061.1174  105910241.62448       811.2704         48.9004
  24813520.1884  130396106.28746     -2985.2034         41.9004
  24590329.234   129223061.531 7     -3156.684          42.600
  22162000.9384  116462454.62547     -2737.3634         47.9004
  20892091.2114  109788613.23448       555.8134         49.8004
  23998668.445   126113960.201 7      3727.004          42.100
  20440801.8364  107417248.83348      -983.5044         51.6004
  25309635.320   133002970.541 6     -3261.559          40.400
  21905102.0084  115112272.53448      2635.3554         48.1004
  24860125.5234  130640852.10146      -322.7384         39.7004
  23727799.5394  124690397.40647      3215.6844         44.6004
 11 10 21 21  0 12.0000000  0 11G13G32G17G20G04G07G23G31G10G30G02
  20153906.8914  105909430.81148       810.6604         49.1004
  24814088.6484  130399091.82146     -2985.3404         41.6004
  24590930.125   129226218.474 7     -3156.723          42.300
  22162521.5784  116465192.30448     -2737.6914         48.0004
  20891985.2424  109788058.01148       554.9964         49.0004
  23997959.125   126110233.519 7      3726.773          42.700
  20440989.1414  107418232.73448      -983.9574         51.3004
  25310256.203   133006232.300 6     -3261.742          39.900
  21904600.5474  115109637.51247      2635.0704         47.0004
  24860186.6094  130641175.40846      -323.4224         39.4004
  23727187.9774  124687182.06147      3215.3554         44.8004
 11 10 21 21  0 13.0000000  0 11G13G32G17G20G04G07G23G31G10G30G02
  20153752.7424  105908620.53048       809.9104         49.2004
  24814656.2194  130402077.40846     -2985.7584         41.6004
  24591530.953   129229375.520 7     -3157.082          42.300
  22163042.2034  116467930.22848     -2738.1604         48.2004
  20891879.6954  109787503.43148       554.1484         49.3004
  23997249.180   126106506.988 7      3726.363          42.100
  20441176.5474  107419217.09348      -984.6724         51.7004
  25310877.234   133009494.333 6     -3262.273          40.100
  21904098.6884  115107002.74847      2634.5354         47.0004
  24860247.8444  130641499.38546      -324.4844         38.4004
  23726575.8984  124683967.00847      3214.7974         44.3004
 11 10 21 21  0 14.0000000  0 11G13G32G17G20G04G07G23G31G10G30G02
  20153598.5634  105907810.71048       809.4924         49.6004
  24815224.6334  130405062.98746     -2985.7384         41.6004
  24592132.000   129232532.584 7     -3157.102          42.500
  22163563.6414  116470668.34048     -2738.3284         48.5004
  20891774.4064  109786949.40948       553.5984         49.5004
  23996540.367   126102780.381 7      3726.477          42.100
  20441363.8134  107420201.83748      -985.0664         51.7004
  25311497.555   133012756.546 6     -3262.410          40.300
  21903597.8134  115104368.16147      2634.4064         47.5004
  24860309.7034  130641823.88946      -324.9374         38.4004
  23725964.4534  124680752.16247      3214.6174         44.5004
 11 10 21 21  0 15.0000000  0 11G13G32G17G20G04G07G23G31G10G30G02
  20153444.7424  105907001.51348       808.9614         49.8004
  24815792.9384  130408048.70847     -2985.8834         42.1004
  24592732.773   129235689.804 6     -3157.230          41.800
  22164084.6804  116473406.80947     -2738.6484         47.9004
  20891669.0084  109786396.10948       552.9534         49.7004
  23995831.664   126099054.002 7      3726.484          42.200
  20441551.6484  107421187.09548      -985.4534         51.7004
  25312117.922   133016019.065 6     -3262.676          40.200
  21903096.3594  115101733.90148      2634.1214         48.2004
  24860371.9144  130642149.14046      -325.6914         38.3004
  23725352.3284  124677537.68247      3214.3484         44.1004
 11 10 21 21  0 16.0000000  0 11G13G32G17G20G04G07G23G31G10G30G02
  20153290.5234  105906192.81748       808.4534         49.9004
  24816361.1644  130411034.42347     -2985.7504         42.7004
  24593332.641   129238847.032 7     -3157.168          42.000
  22164606.2664  116476145.47247     -2738.7114         47.9004
  20891563.9144  109785843.42948       552.4104         50.3004
  23995122.039   126095327.690 7      3726.344          42.400
  20441738.7504  107422172.76548      -985.8594         51.6004
  25312739.227   133019281.791 6     -3262.719          39.800
  21902595.5474  115099099.84848      2634.0004         48.6004
  24860433.7894  130642474.98946      -326.2114         39.0004
  23724740.4384  124674323.42147      3214.2344         44.2004
 11 10 21 21  0 17.0000000  0 11G13G32G17G20G04G07G23G31G10G30G02
  20153137.0394  105905384.66748       807.6954         50.0004
  24816929.1094  130414020.30447     -2986.1524         42.3004
  24593933.906   129242004.385 7     -3157.449          42.200
  22165127.1484  116478884.43648     -2739.2854         48.0004
  20891458.8204  109785291.46448       551.4614         50.5004
  23994413.047   126091601.515 7      3725.984          42.500
  20441926.3524  107423158.90448      -986.5164         51.6004
  25313360.461   133022544.823 6     -3263.367          40.000
  21902094.1804  115096466.08048      2633.4804         48.9004
  24860496.0394  130642801.52146      -327.0554         39.7004
  23724129.0084  124671109.50747      3213.6054         44.0004
 11 10 21 21  0 18.0000000  0 11G13G32G17G20G04G07G23G31G10G30G02
  20152983.2504  105904577.02848       807.0824         49.6004
  24817497.7734  130417006.13446     -2986.2074         41.8004
  24594534.492   129245161.800 7     -3157.723          42.100
  22165648.5394  116481623.65447     -2739.6454         47.9004
  20891354.0474  109784740.07948       550.7344         50.4004
  23993704.336   126087875.411 7      3725.770          42.700
  20442114.1254  107424145.48848      -987.1254         51.7004
  25313981.039   133025808.063 6     -3263.793          40.400
  21901593.1024  115093832.54448      2633.0554         49.0004
  24860558.3754  130643128.68046      -327.7704         39.7004
  23723517.6254  124667895.85547      3213.2114         44.4004
 11 10 21 21  0 19.0000000  0 11G13G32G17G20G04G07G23G31G10G30G02
  20152829.8914  105903769.94148       806.5704         49.3004
  24818065.4844  130419992.07346     -2986.4104         41.8004
  24595135.430   129248319.329 7     -3157.867          42.000
  22166169.4454  116484363.10848     -2739.8014         48.0004
  20891249.2664  109784189.33648       550.1524         50.4004
  23992995.430   126084149.413 7      3725.688          42.700
  20442302.1024  107425132.49848      -987.4844         51.6004
  25314602.445   133029071.530 6     -3263.844          39.900
  21901091.9064  115091199.26248      2632.8484         48.6004
  24860620.9534  130643456.47346      -328.4344         39.9004
  23722906.1414  124664682.46247      3212.9454         44.1004
 11 10 21 21  0 20.0000000  0 11G13G32G17G20G04G07G23G31G10G30G02
  20152676.1804  105902963.46648       806.3094         49.0004
  24818633.8054  130422978.16946     -2985.9774         41.9004
  24595735.539   129251476.997 6     -3157.582          41.700
  22166691.0474  116487102.92448     -2739.8444         48.0004
  20891144.3444  109783639.31548       549.7894         50.3004
  23992286.391   126080423.570 7      3725.879          42.400
  20442490.3284  107426120.03648      -987.6914         51.4004
  25315223.531   133032335.330 6     -3263.766          39.700
  21900590.9304  115088566.30748      2632.9224         48.8004
  24860683.8284  130643785.01546      -328.6134         40.3004
  23722294.7734  124661469.44447      3212.9384         43.8004
 11 10 21 21  0 21.0000000  0 11G13G32G17G20G04G07G23G31G10G30G02
  20152522.8054  105902157.49348       805.6804         48.8004
  24819201.8524  130425964.29047     -2986.1764         42.0004
  24596336.977   129254634.713 6     -3157.730          41.800
  22167212.2974  116489842.97247     -2740.2154         47.6004
  20891039.7814  109783089.92348       549.1134         50.5004
  23991577.797   126076697.815 7      3725.758          42.700
  20442678.0394  107427108.01148      -988.2034         51.5004
  25315844.492   133035599.379 6     -3264.281          40.000
  21900089.8914  115085933.57248      2632.6374         48.8004
  24860746.6644  130644114.18046      -329.5124         39.9004
  23721683.0864  124658256.67747      3212.6254         43.7004
 11 10 21 21  0 22.0000000  0 11G13G32G17G20G04G07G23G31G10G30G02
  20152369.5554  105901352.07948       804.9104         48.8004
  24819770.3674  130428950.50247     -2986.4454         42.3004
  24596937.445   129257792.552 6     -3158.023          41.300
  22167733.7194  116492583.28747     -2740.6844         47.6004
  20890935.4224  109782541.18648       548.2234         50.4004
  23990868.484   126072972.189 7      3725.355          42.800
  20442866.2584  107428096.43148      -988.9064         51.3004
  25316466.164   133038863.668 6     -3264.621          40.400
  21899588.7734  115083301.11748      2632.1174         48.5004
  24860808.6884  130644444.01046      -330.3094         39.9004
  23721071.5314  124655044.21347      3212.1454         43.9004
 11 10 21 21  0 23.0000000  0 11G13G32G17G20G04G07G23G31G10G30G02
  20152216.4064  105900547.10348       804.8404         49.3004
  24820338.3834  130431936.69047     -2986.1174         42.3004
  24597539.000   129260950.368 6     -3157.707          40.800
  22168255.5704  116495323.78047     -2740.5004         47.3004
  20890831.1094  109781993.02348       547.9304         50.0004
  23990159.734   126069246.571 7      3725.695          43.400
  20443054.4534  107429085.20248      -988.8754         51.7004
  25317087.219   133042128.107 6     -3264.437          40.500
  21899087.9694  115080668.81348      2632.3554         48.6004
  24860872.2424  130644774.36546      -330.5124         39.5004
  23720461.3364  124651831.94547      3212.2664         44.5004
 11 10 21 21  0 24.0000000  0 11G13G32G17G20G04G07G23G31G10G30G02
  20152063.2974  105899742.70148       804.1054         49.4004
  24820907.2734  130434922.99047     -2986.3954         42.5004
  24598139.984   129264108.300 6     -3157.984          41.100
  22168777.1334  116498064.57047     -2740.9654         47.0004
  20890726.9924  109781445.55048       547.1454         50.1004
  23989450.641   126065521.094 7      3725.410          43.400
  20443242.6644  107430074.47748      -989.5084         52.0004
  25317707.992   133045392.828 6     -3264.832          39.700
  21898587.1564  115078036.82048      2631.8524         48.5004
  24860934.7034  130645105.40846      -331.2664         39.6004
  23719850.1564  124648620.00247      3211.8594         44.5004
 11 10 21 21  0 25.0000000  0 11G13G32G17G20G04G07G23G31G10G30G02
  20151910.3204  105898938.88048       803.6374         49.6004
  24821475.6334  130437909.38347     -2986.4264         42.6004
  24598741.000   129267266.352 6     -3158.051          40.700
  22169298.6414  116500805.65947     -2741.2464         47.3004
  20890623.0004  109780898.76048       546.4734         50.0004
  23988741.578   126061795.746 7      3725.387          43.700
  20443430.5084  107431064.23248      -989.9654         51.9004
  25318329.508   133048657.864 6     -3265.078          40.200
  21898086.3834  115075405.12448      2631.5824         48.6004
  24860997.9614  130645437.20146      -331.9694         40.1004
  23719238.6644  124645408.40547      3211.5004         44.7004
 11 10 21 21  0 26.0000000  0 11G13G32G17G20G04G07G23G31G10G30G02
  20151757.5084  105898135.52648       803.1564         49.5004
  24822043.9694  130440895.76947     -2986.5044         42.6004
  24599341.672   129270424.414 6     -3157.922          40.400
  22169820.5394  116503546.93847     -2741.3244         47.5004
  20890518.7664  109780352.54648       545.8834         50.3004
  23988032.391   126058070.470 7      3725.359          43.800
  20443619.5394  107432054.37048      -990.2664         52.0004
  25318950.953   133051923.088 6     -3265.270          40.300
  21897585.4454  115072773.61248      2631.4454         48.8004
  24861061.1484  130645769.51546      -332.4304         40.0004
  23718627.5164  124642197.02947      3211.3554         44.7004
 11 10 21 21  0 27.0000000  0 11G13G32G17G20G04G07G23G31G10G30G02
  20151604.6804  105897332.89948       802.3014         49.1004
  24822612.2814  130443882.41847     -2986.7814         43.1004
  24599942.977   129273582.764 6     -3158.395          40.400
  22170342.1024  116506288.67647     -2741.8914         47.5004
  20890414.8054  109779807.14048       545.0704         49.9004
  23987323.797   126054345.442 7      3724.957          42.600
  20443808.2194  107433045.14648      -991.0784         52.0004
  25319572.398   133055188.669 6     -3265.820          40.000
  21897085.2734  115070142.53148      2630.9384         48.5004
  24861124.1254  130646102.69946      -333.5744         40.2004
  23718016.9614  124638986.09847      3210.8014         45.1004
 11 10 21 21  0 28.0000000  0 11G13G32G17G20G04G07G23G31G10G30G02
  20151451.8754  105896530.59448       802.1564         49.4004
  24823179.9384  130446868.93047     -2986.4454         42.8004
  24600543.102   129276740.993 6     -3158.156          40.600
  22170864.1484  116509030.47947     -2741.7974         47.3004
  20890311.3284  109779262.19848       544.7814         50.1004
  23986614.953   126050620.335 7      3725.211          43.000
  20443996.5314  107434036.14848      -991.0704         52.0004
  25320193.703   133058454.389 6     -3265.648          40.100
  21896584.0944  115067511.50648      2631.1024         48.7004
  24861187.8914  130646436.33646      -333.7814         39.8004
  23717405.7664  124635775.26947      3210.9224         44.9004
 11 10 21 21  0 29.0000000  0 11G13G32G17G20G04G07G23G31G10G30G02
  20151299.3364  105895728.82948       801.3094         49.1004
  24823748.2344  130449855.49947     -2986.7974         43.2004
  24601144.219   129279899.239 6     -3158.367          40.600
  22171385.8834  116511772.50347     -2742.4024         47.2004
  20890208.3674  109778717.91148       543.7854         50.3004
  23985906.422   126046895.315 7      3724.742          43.300
  20444185.1484  107435027.58748      -991.8594         51.4004
  25320815.336   133061720.283 6     -3266.074          39.900
  21896083.4774  115064880.71148      2630.4884         48.9004
  24861250.9224  130646770.60546      -334.8484         39.4004
  23716795.3834  124632564.71847      3210.2464         44.8004
 11 10 21 21  0 30.0000000  0 11G13G32G17G20G04G07G23G31G10G30G02
  20151147.2114  105894927.79948       800.8674         49.3004
  24824316.3134  130452842.35947     -2986.8984         42.7004
  24601745.148   129283057.840 6     -3158.695          40.900
  22171907.7424  116514515.02347     -2742.5984         47.2004
  20890104.6484  109778174.47448       543.1604         50.1004
  23985197.617   126043170.612 7      3724.652          43.800
  20444373.7814  107436019.70548      -992.3094         51.1004
  25321436.742   133064986.686 6     -3266.555          40.200
  21895582.8984  115062250.40448      2630.1914         48.8004
  24861315.1334  130647105.73446      -335.4614         39.7004
  23716183.6174  124629354.67847      3209.9384         44.7004
 11 10 21 21  0 31.0000000  0 11G13G32G17G20G04G07G23G31G10G30G02
  20150994.7034  105894127.26048       800.4884         49.5004
  24824884.9774  130455829.16046     -2986.4734         41.6004
  24602346.867   129286216.416 6     -3158.418          40.900
  22172429.3754  116517257.72847     -2742.6374         47.5004
  20890001.4454  109777631.63448       542.6684         50.0004
  23984488.461   126039445.936 7      3724.836          43.900
  20444562.5944  107437012.19748      -992.5984         51.1004
  25322057.828   133068253.219 6     -3266.473          40.400
  21895082.3914  115059620.25948      2630.1724         48.3004
  24861379.0084  130647441.42546      -335.8444         39.0004
  23715572.7274  124626144.81947      3209.9414         45.0004
 11 10 21 21  0 32.0000000  0 11G13G32G17G20G04G07G23G31G10G30G02
  20150842.6024  105893327.31048       799.6524         49.6004
  24825453.9064  130458816.16446     -2987.0274         41.7004
  24602948.219   129289375.128 6     -3158.691          40.000
  22172951.6644  116520000.75747     -2743.1604         47.3004
  20889898.6644  109777089.50948       541.7304         50.2004
  23983779.891   126035721.428 7      3724.488          43.700
  20444751.7344  107438005.18248      -993.2304         51.1004
  25322679.344   133071520.083 6     -3266.969          40.300
  21894582.2424  115056990.44548      2629.6604         48.3004
  24861442.6884  130647777.85446      -336.6604         39.0004
  23714962.5864  124622935.32747      3209.3954         44.6004
 11 10 21 21  0 33.0000000  0 11G13G32G17G20G04G07G23G31G10G30G02
  20150690.2584  105892527.82648       799.2584         49.6004
  24826022.4064  130461803.13446     -2986.9494         41.8004
  24603548.570   129292533.904 6     -3158.727          40.400
  22173473.5474  116522744.00047     -2743.3014         47.3004
  20889795.4144  109776547.94048       541.4104         50.0004
  23983071.320   126031996.948 7      3724.617          43.900
  20444940.6724  107438998.55848      -993.5744         51.2004
  25323301.555   133074787.112 6     -3267.043          40.100
  21894081.7734  115054360.80948      2629.5904         48.2004
  24861506.8594  130648114.85646      -337.3444         39.2004
  23714352.0234  124619726.06147      3209.2074         44.5004
 11 10 21 21  0 34.0000000  0 11G13G32G17G20G04G07G23G31G10G30G02
  20150538.2734  105891728.92548       798.5354         49.6004
  24826590.6954  130464790.22846     -2987.1724         41.7004
  24604149.711   129295692.757 6     -3159.027          40.400
  22173996.0234  116525487.53047     -2743.7734         47.9004
  20889692.2424  109776007.07448       540.4884         50.0004
  23982362.664   126028272.635 7      3724.156          44.400
  20445130.0084  107439992.44148      -994.1994         51.0004
  25323923.492   133078054.445 6     -3267.602          40.300
  21893581.2894  115051731.47448      2629.0434         48.1004
  24861571.2734  130648452.54846      -338.0514         38.8004
  23713740.6174  124616517.11647      3208.6524         44.5004
 11 10 21 21  0 35.0000000  0 11G13G32G17G20G04G07G23G31G10G30G02
  20150386.5944  105890930.49848       797.7934         49.6004
  24827159.8524  130467777.28646     -2987.5044         41.7004
  24604751.086   129298851.650 6     -3159.301          40.100
  22174517.7584  116528231.24148     -2744.2114         48.0004
  20889589.2584  109775466.79248       539.6414         50.1004
  23981653.531   126024548.327 7      3723.941          44.100
  20445319.0864  107440986.67248      -994.8444         50.9004
  25324545.469   133081321.941 6     -3267.934          40.200
  21893081.3594  115049102.31448      2628.7114         48.5004
  24861635.7424  130648790.82446      -339.0314         39.3004
  23713130.1414  124613308.38747      3208.2234         43.9004
 11 10 21 21  0 36.0000000  0 11G13G32G17G20G04G07G23G31G10G30G02
  20150234.6414  105890132.71248       797.3244         49.7004
  24827728.2274  130470764.55647     -2987.4804         42.2004
  24605352.063   129302010.697 6     -3159.250          40.800
  22175039.8594  116530975.32748     -2744.3674         48.0004
  20889486.3914  109774927.28748       538.9964         50.2004
  23980945.180   126020824.249 7      3723.855          44.000
  20445508.5634  107441981.47048      -995.2704         50.8004
  25325166.555   133084589.809 6     -3268.145          40.400
  21892580.7114  115046473.54248      2628.4264         48.3004
  24861700.4534  130649129.85446      -339.5124         39.9004
  23712519.2734  124610100.04547      3207.9614         43.9004
 11 10 21 21  0 37.0000000  0 11G13G32G17G20G04G07G23G31G10G30G02
  20150083.1884  105889335.43548       797.0474         50.1004
  24828296.2734  130473751.86247     -2987.4304         42.7004
  24605953.516   129305169.849 6     -3159.191          41.300
  22175561.9304  116533719.66348     -2744.4804         48.3004
  20889383.9144  109774388.38648       538.4884         50.2004
  23980236.828   126017100.258 7      3723.957          44.300
  20445697.7584  107442976.69548      -995.4224         50.9004
  25325789.125   133087857.911 6     -3268.195          40.400
  21892080.6884  115043844.98547      2628.4534         47.9004
  24861765.2664  130649469.51146      -340.0314         39.6004
  23711909.5704  124606892.00247      3207.8054         44.5004
 11 10 21 21  0 38.0000000  0 11G13G32G17G20G04G07G23G31G10G30G02
  20149931.6644  105888538.69848       796.5234         49.8004
  24828864.9064  130476739.20147     -2987.2074         43.0004
  24606554.328   129308329.061 6     -3159.238          41.100
  22176083.9064  116536464.25948     -2744.7584         48.5004
  20889281.7584  109773850.14448       537.9694         50.0004
  23979528.016   126013376.332 7      3723.965          43.900
  20445887.3674  107443972.36248      -995.8524         51.0004
  25326410.641   133091126.244 6     -3268.426          40.100
  21891580.4304  115041216.69047      2628.2384         47.7004
  24861829.3594  130649809.85346      -340.6524         38.8004
  23711298.9844  124603684.20647      3207.7344         44.9004
 11 10 21 21  0 39.0000000  0 11G13G32G17G20G04G07G23G31G10G30G02
  20149780.0164  105887742.45948       796.0204         49.9004
  24829433.1174  130479726.60347     -2987.4414         42.9004
  24607155.688   129311488.318 6     -3159.270          41.300
  22176606.0704  116539209.08748     -2745.0124         48.1004
  20889179.4144  109773312.49848       537.3524         50.2004
  23978819.336   126009652.525 7      3723.781          43.700
  20446077.1174  107444968.45348      -996.3124         51.0004
  25327032.984   133094394.785 6     -3268.547          39.900
  21891080.6804  115038588.61348      2628.0124         48.1004
  24861893.8364  130650150.77646      -341.1484         38.7004
  23710688.5394  124600476.71447      3207.4064         45.0004
 11 10 21 21  0 40.0000000  0 11G13G32G17G20G04G07G23G31G10G30G02
  20149628.3594  105886946.79048       795.5124         49.5004
  24830001.8674  130482714.04947     -2987.3874         42.6004
  24607756.828   129314647.718 6     -3159.473          41.400
  22177128.7344  116541954.17747     -2745.1294         47.8004
  20889077.3594  109772775.53548       536.6454         50.2004
  23978110.602   126005928.819 7      3723.750          43.600
  20446266.2814  107445965.01948      -996.7384         51.1004
  25327655.453   133097663.633 6     -3268.949          39.900
  21890580.5084  115035960.81748      2627.7894         48.0004
  24861959.6724  130650492.36546      -341.8204         39.0004
  23710078.3754  124597269.49647      3207.0664         44.9004
 11 10 21 21  0 41.0000000  0 11G13G32G17G20G04G07G23G31G10G30G02
  20149477.1414  105886151.75048       794.5904         49.0004
  24830570.4064  130485701.68147     -2987.7584         43.0004
  24608358.031   129317807.246 6     -3159.711          41.700
  22177651.1024  116544699.63348     -2745.6914         48.1004
  20888975.1414  109772239.27948       535.8524         50.3004
  23977402.430   126002205.293 7      3723.391          43.700
  20446456.4384  107446962.09948      -997.4414         51.4004
  25328276.539   133100932.769 6     -3269.430          40.500
  21890080.2584  115033333.35648      2627.1914         48.0004
  24862024.6414  130650834.69446      -342.7234         39.2004
  23709467.1334  124594062.65247      3206.5824         44.6004
 11 10 21 21  0 42.0000000  0 11G13G32G17G20G04G07G23G31G10G30G02
  20149325.8284  105885357.16048       794.3674         49.0004
  24831138.5394  130488689.29847     -2987.5704         43.2004
  24608959.148   129320966.764 6     -3159.551          41.800
  22178173.8284  116547445.28048     -2745.7544         48.3004
  20888873.2194  109771703.62048       535.3244         50.2004
  23976693.148   125998481.815 7      3723.477          44.300
  20446646.1804  107447959.56548      -997.6914         51.4004
  25328899.172   133104202.104 6     -3269.480          39.500
  21889580.4844  115030706.07848      2627.1914         48.0004
  24862090.0314  130651177.63846      -343.2584         39.2004
  23708857.5634  124590856.04247      3206.3954         44.7004
 11 10 21 21  0 43.0000000  0 11G13G32G17G20G04G07G23G31G10G30G02
  20149174.9384  105884563.13748       793.4414         49.6004
  24831707.7114  130491677.02047     -2988.0164         43.0004
  24609560.984   129324126.416 6     -3159.973          41.300
  22178696.0084  116550191.18647     -2746.2774         47.6004
  20888771.1884  109771168.63048       534.3404         50.4004
  23975984.336   125994758.467 7      3722.992          43.500
  20446835.6884  107448957.49448      -998.4734         51.1004
  25329521.242   133107471.696 6     -3269.996          40.300
  21889080.4694  115028079.06647      2626.6484         47.7004
  24862155.8134  130651521.23146      -344.2974         38.9004
  23708247.5314  124587649.73047      3205.7664         44.1004
 11 10 21 21  0 44.0000000  0 11G13G32G17G20G04G07G23G31G10G30G02
  20149023.6564  105883769.56748       793.2704         49.6004
  24832275.5314  130494664.71847     -2987.7734         43.0004
  24610161.672   129327286.052 7     -3159.699          42.000
  22179219.0084  116552937.28747     -2746.1874         47.9004
  20888669.9774  109770634.23348       534.1294         50.4004
  23975276.227   125991035.138 7      3723.328          42.300
  20447026.0084  107449955.78348      -998.4574         51.1004
  25330143.523   133110741.448 6     -3269.836          39.400
  21888580.7034  115025452.24347      2626.6644         47.0004
  24862220.7114  130651865.35646      -344.5354         38.4004
  23707637.3204  124584443.63047      3206.0234         44.1004
 11 10 21 21  0 45.0000000  0 11G13G32G17G20G04G07G23G31G10G30G02
  20148872.9224  105882976.70348       792.5514         49.5004
  24832844.0864  130497652.66147     -2988.0354         42.6004
  24610762.836   129330445.943 6     -3159.980          41.700
  22179741.1564  116555683.83147     -2746.7344         47.6004
  20888568.1094  109770100.66248       533.1844         50.2004
  23974567.898   125987312.060 6      3722.910          41.800
  20447216.1094  107450954.69148      -999.1484         51.4004
  25330765.352   133114011.622 6     -3270.355          39.900
  21888080.8524  115022825.82747      2626.2624         46.3004
  24862286.4924  130652210.35846      -345.3404         38.2004
  23707027.6644  124581237.95947      3205.5124         43.7004
 11 10 21 21  0 46.0000000  0 11G13G32G17G20G04G07G23G31G10G30G02
  20148721.9144  105882184.36048       791.9804         49.9004
  24833412.8204  130500640.61547     -2988.1214         42.5004
  24611364.797   129333605.886 7     -3160.168          42.000
  22180264.5234  116558430.60547     -2746.9774         47.8004
  20888466.7034  109769567.69348       532.5234         50.3004
  23973859.047   125983589.069 7      3722.871          42.200
  20447405.9224  107451954.03748      -999.6914         51.4004
  25331388.211   133117282.019 6     -3270.684          40.300
  21887580.8134  115020199.65447      2626.0394         46.9004
  24862351.4454  130652555.96446      -345.9924         38.4004
  23706417.4454  124578032.57547      3205.2504         44.1004
 11 10 21 21  0 47.0000000  0 11G13G32G17G20G04G07G23G31G10G30G02
  20148571.4844  105881392.49748       791.9384         50.0004
  24833981.2814  130503628.59947     -2987.6454         43.2004
  24611965.563   129336765.857 6     -3159.727          41.700
  22180786.9224  116561177.56147     -2746.7194         47.6004
  20888365.6414  109769035.31848       532.3874         50.5004
  23973150.820   125979866.148 7      3723.215          42.800
  20447596.2584  107452953.73848      -999.5744         51.4004
  25332009.859   133120552.589 6     -3270.234          40.400
  21887081.0784  115017573.68347      2626.2074         47.5004
  24862418.1094  130652902.14246      -346.2344         38.4004
  23705808.0784  124574827.41047      3205.3324         44.3004
 11 10 21 21  0 48.0000000  0 11G13G32G17G20G04G07G23G31G10G30G02
  20148420.9774  105880601.24948       790.8954         49.7004
  24834550.3984  130506616.73247     -2988.2274         43.4004
  24612567.141   129339925.949 6     -3160.125          41.200
  22181309.8134  116563924.89148     -2747.4654         48.0004
  20888263.9694  109768503.66348       531.2974         50.4004
  23972442.469   125976143.411 7      3722.625          42.900
  20447786.5314  107453954.00148     -1000.5164         51.1004
  25332632.867   133123823.470 6     -3270.992          40.500
  21886581.7034  115014948.04547      2625.4654         47.9004
  24862484.0234  130653249.07946      -347.3554         38.9004
  23705197.9774  124571622.62947      3204.6174         44.0004
 11 10 21 21  0 49.0000000  0 11G13G32G17G20G04G07G23G31G10G30G02
  20148270.6954  105879810.51348       790.2624         49.9004
  24835118.4144  130509604.92447     -2988.2734         43.1004
  24613168.867   129343086.163 6     -3160.316          41.100
  22181832.5784  116566672.46347     -2747.8524         47.6004
  20888162.7814  109767972.68048       530.4774         50.0004
  23971734.523   125972420.736 7      3722.527          43.000
  20447977.0474  107454954.68548     -1001.1414         51.0004
  25333255.367   133127094.627 6     -3271.332          41.100
  21886082.2034  115012322.66948      2625.0514         48.1004
  24862550.6564  130653596.60846      -348.0084         38.6004
  23704588.1804  124568418.11947      3204.2154         44.1004
 11 10 21 21  0 50.0000000  0 11G13G32G17G20G04G07G23G31G10G30G02
  20148120.2194  105879020.31448       789.8244         49.7004
  24835687.4534  130512593.15647     -2988.3554         42.7004
  24613769.695   129346246.434 6     -3160.449          41.200
  22182355.3594  116569420.25547     -2747.9144         47.8004
  20888062.4614  109767442.31148       530.0004         49.8004
  23971025.820   125968698.186 7      3722.359          43.200
  20448167.7584  107455955.79648     -1001.4104         51.4004
  25333878.023   133130366.006 6     -3271.738          40.400
  21885582.6024  115009697.49748      2624.9654         48.2004
  24862616.8754  130653944.80346      -348.6094         38.3004
  23703978.2034  124565213.86847      3203.9184         44.1004
 11 10 21 21  0 51.0000000  0 11G13G32G17G20G04G07G23G31G10G30G02
  20147969.6644  105878230.68148       789.2234         49.2004
  24836255.1254  130515581.50847     -2988.4024         42.9004
  24614371.375   129349406.813 6     -3160.539          41.700
  22182878.3444  116572168.37247     -2748.3754         47.3004
  20887961.3524  109766912.61248       529.3324         49.4004
  23970317.188   125964975.763 7      3722.215          42.800
  20448358.2974  107456957.39848     -1001.9304         51.1004
  25334500.641   133133637.656 6     -3271.832          40.200
  21885083.1884  115007072.63947      2624.5984         47.6004
  24862683.1414  130654293.69946      -349.3124         38.7004
  23703368.5234  124562009.94847      3203.7544         44.5004
 11 10 21 21  0 52.0000000  0 11G13G32G17G20G04G07G23G31G10G30G02
  20147819.5164  105877441.55748       788.8134         49.2004
  24836824.0234  130518569.88447     -2988.4574         42.6004
  24614972.492   129352567.254 6     -3160.602          41.400
  22183401.4844  116574916.73247     -2748.5004         47.0004
  20887860.6094  109766383.54948       528.7344         49.3004
  23969608.758   125961253.431 7      3722.094          43.000
  20448548.8674  107457959.42048     -1002.2814         51.1004
  25335123.008   133136909.533 6     -3272.059          40.000
  21884583.3364  115004448.01548      2624.4694         48.2004
  24862749.4384  130654643.19746      -349.8244         38.5004
  23702759.0234  124558806.31447      3203.5474         45.0004
 11 10 21 21  0 53.0000000  0 11G13G32G17G20G04G07G23G31G10G30G02
  20147669.3834  105876653.03148       788.1604         49.2004
  24837392.7504  130521558.41047     -2988.5984         42.7004
  24615573.656   129355727.789 6     -3160.711          41.000
  22183924.0234  116577665.38447     -2748.9224         47.5004
  20887760.2274  109765855.18848       527.9654         49.5004
  23968900.758   125957531.220 7      3722.023          43.200
  20448739.7814  107458961.93648     -1002.8364         51.3004
  25335745.828   133140181.655 6     -3272.270          40.000
  21884084.4694  115001823.67348      2624.1334         48.4004
  24862816.4534  130654993.41046      -350.6604         38.5004
  23702149.4844  124555602.99847      3203.1604         45.0004
 11 10 21 21  0 54.0000000  0 11G13G32G17G20G04G07G23G31G10G30G02
  20147519.6174  105875865.09948       787.5904         49.5004
  24837961.8984  130524547.03147     -2988.7344         42.6004
  24616175.500   129358888.509 6     -3160.777          40.600
  22184447.6724  116580414.36047     -2749.2344         47.8004
  20887659.5004  109765327.52648       527.2854         49.6004
  23968192.063   125953809.210 7      3721.883          42.600
  20448930.6254  107459964.95648     -1003.3014         51.4004
  25336368.266   133143454.141 6     -3272.512          40.500
  21883584.5474  114999199.68148      2623.7624         48.8004
  24862882.9694  130655344.31946      -351.2624         37.8004
  23701539.4614  124552400.05047      3202.8594         45.1004
 11 10 21 21  0 55.0000000  0 11G13G32G17G20G04G07G23G31G10G30G02
  20147369.7114  105875077.64248       787.0784         49.2004
  24838530.3674  130527535.68047     -2988.7664         42.2004
  24616776.820   129362049.264 6     -3161.031          40.200
  22184970.8594  116583163.55547     -2749.4534         47.6004
  20887559.8984  109764800.47148       526.5234         49.7004
  23967483.750   125950087.265 7      3721.699          42.800
  20449121.6094  107460968.38348     -1003.7464         51.3004
  25336991.680   133146726.823 6     -3272.926          40.500
  21883085.6094  114996575.87248      2623.5354         48.7004
  24862949.7734  130655695.83446      -351.9304         37.5004
  23700930.1254  124549197.34747      3202.4414         45.1004
 11 10 21 21  0 56.0000000  0 11G13G32G17G20G04G07G23G31G10G30G02
  20147219.5784  105874290.66448       786.7424         49.2004
  24839098.7734  130530524.30447     -2988.4884         42.1004
  24617378.219   129365209.988 6     -3160.738          40.800
  22185494.0944  116585912.94248     -2749.4374         48.0004
  20887459.2734  109764273.96248       526.2974         49.5004
  23966775.820   125946365.324 7      3721.949          43.100
  20449312.4384  107461972.17148     -1003.9374         51.2004
  25337614.070   133149999.651 6     -3272.980          40.600
  21882586.2504  114993952.25048      2623.5274         49.1004
  24863016.5704  130656047.90346      -352.2584         38.0004
  23700321.4384  124545994.84947      3202.3714         45.3004
 11 10 21 21  0 57.0000000  0 11G13G32G17G20G04G07G23G31G10G30G02
  20147070.2974  105873504.16948       786.3014         49.0004
  24839667.9534  130533512.96946     -2988.6094         41.9004
  24617980.070   129368370.780 6     -3160.824          41.000
  22186016.7424  116588662.54148     -2749.6764         48.1004
  20887359.1254  109763748.08248       525.6094         49.9004
  23966067.281   125942643.466 7      3721.965          42.600
  20449503.8524  107462976.36848     -1004.3324         51.4004
  25338237.289   133153272.684 6     -3273.285          40.000
  21882087.0474  114991328.86448      2623.2934         49.2004
  24863083.4534  130656400.63846      -353.1764         37.7004
  23699711.5164  124542792.61347      3202.0984         45.6004
 11 10 21 21  0 58.0000000  0 11G13G32G17G20G04G07G23G31G10G30G02
  20146921.0394  105872718.34348       785.5904         49.5004
  24840236.3594  130536501.84247     -2988.9024         42.1004
  24618581.328   129371531.769 6     -3161.066          41.600
  22186540.0704  116591412.56147     -2750.1524         47.9004
  20887259.1334  109763222.98548       524.7934         50.2004
  23965359.344   125938921.850 7      3721.629          42.800
  20449694.8524  107463981.16648     -1004.9884         51.2004
  25338860.680   133156546.079 6     -3273.543          40.500
  21881587.9384  114988705.80748      2623.0004         48.9004
  24863150.9614  130656754.09346      -353.7664         38.1004
  23699102.2344  124539590.79347      3201.6644         44.9004
 11 10 21 21  0 59.0000000  0 11G13G32G17G20G04G07G23G31G10G30G02
  20146771.1724  105871933.00048       784.9924         49.8004
  24840805.5474  130539490.69047     -2988.8794         42.2004
  24619182.914   129374692.768 6     -3161.145          41.300
  22187063.6724  116594162.77447     -2750.3594         47.8004
  20887159.5394  109762698.48648       524.1524         49.8004
  23964650.930   125935200.257 7      3721.516          42.900
  20449886.3364  107464986.32048     -1005.3554         51.4004
  25339482.922   133159819.704 6     -3273.703          40.800
  21881088.6334  114986082.99448      2622.6644         48.6004
  24863217.8674  130657108.16946      -354.3554         37.8004
  23698493.1334  124536389.17047      3201.4064         45.0004
 11 10 21 21  1  0.0000000  0 11G13G32G17G20G04G07G23G31G10G30G02
  20146621.8594  105871148.23548       784.2234         49.5004
  24841374.6954  130542479.67847     -2989.2974         42.3004
  24619784.633   129377853.909 6     -3161.434          41.300
  22187587.0004  116596913.31047     -2750.9024         47.7004
  20887059.8284  109762174.68348       523.2074         49.9004
  23963942.852   125931478.833 7      3721.090          43.400
  20450077.4774  107465992.00148     -1006.1844         51.7004
  25340105.680   133163093.574 6     -3274.309          40.500
  21880589.4384  114983460.47848      2622.1174         48.8004
  24863285.7504  130657462.95046      -355.4454         38.6004
  23697883.9384  124533187.92047      3200.8524         44.7004
 11 10 21 21  1  1.0000000  0 11G13G32G17G20G04G07G23G31G10G30G02
  20146472.8834  105870363.89448       783.9534         49.5004
  24841942.8984  130545468.62747     -2989.0744         42.2004
  24620386.234   129381014.996 6     -3161.176          41.300
  22188110.6954  116599663.97647     -2750.9024         47.6004
  20886959.9924  109761651.42348       522.8874         50.2004
  23963234.617   125927757.389 7      3721.375          42.800
  20450268.8524  107466998.00848     -1006.3594         51.5004
  25340728.938   133166367.596 6     -3274.238          40.700
  21880090.7664  114980838.10148      2622.0904         48.7004
  24863353.9224  130657818.26246      -355.6454         39.2004
  23697274.2504  124529986.83847      3200.8444         44.1004
 11 10 21 21  1  2.0000000  0 11G13G32G17G20G04G07G23G31G10G30G02
  20146323.7894  105869580.27748       783.4144         49.8004
  24842512.0234  130548457.84647     -2989.2344         42.6004
  24620987.398   129384176.349 6     -3161.379          41.100
  22188634.3674  116602415.11347     -2751.2544         47.5004
  20886860.8984  109761129.00648       522.0744         50.4004
  23962526.727   125924036.283 7      3721.074          43.000
  20450460.2814  107468004.65048     -1006.7974         51.6004
  25341351.742   133169642.085 6     -3274.625          40.700
  21879591.4384  114978216.17948      2621.7624         48.2004
  24863421.5474  130658174.45346      -356.6054         39.5004
  23696665.2274  124526786.24047      3200.5124         43.7004
 11 10 21 21  1  3.0000000  0 11G13G32G17G20G04G07G23G31G10G30G02
  20146174.4924  105868797.15248       782.7194         49.8004
  24843080.8914  130551447.05347     -2989.4144         43.0004
  24621589.203   129387337.760 6     -3161.660          41.300
  22189158.4534  116605166.43047     -2751.5084         47.2004
  20886761.6334  109760607.17248       521.4064         50.7004
  23961818.602   125920315.200 7      3720.965          43.200
  20450652.1334  107469011.67248     -1007.3754         51.9004
  25341974.844   133172916.704 6     -3274.844          40.200
  21879092.6334  114975594.43948      2621.5274         48.2004
  24863488.9774  130658531.15146      -356.9924         39.0004
  23696056.8984  124523585.86347      3200.0434         44.1004
 11 10 21 21  1  4.0000000  0 11G13G32G17G20G04G07G23G31G10G30G02
  20146025.9064  105868014.48248       782.3164         49.8004
  24843650.2344  130554436.23947     -2989.2814         42.6004
  24622191.023   129390499.162 6     -3161.566          41.800
  22189682.1414  116607917.93847     -2751.7584         47.6004
  20886662.5164  109760085.89748       520.8204         50.3004
  23961110.445   125916594.131 7      3721.020          43.100
  20450843.9384  107470019.07748     -1007.7544         51.5004
  25342598.070   133176191.516 6     -3275.027          40.500
  21878593.9694  114972972.88047      2621.3094         47.4004
  24863557.1334  130658888.48746      -357.6214         38.8004
  23695447.5634  124520385.71147      3199.9454         43.9004
 11 10 21 21  1  5.0000000  0 11G13G32G17G20G04G07G23G31G10G30G02
  20145876.4534  105867232.42448       781.9184         49.6004
  24844218.5704  130557425.56747     -2989.3094         42.8004
  24622792.766   129393660.684 6     -3161.457          41.800
  22190205.2194  116610669.78647     -2751.8914         47.8004
  20886563.7274  109759565.36848       520.3244         50.3004
  23960402.391   125912873.247 7      3721.070          43.400
  20451035.7584  107471026.98748     -1008.0004         51.2004
  25343221.234   133179466.659 6     -3275.320          40.400
  21878095.3364  114970351.64847      2621.2274         47.3004
  24863624.4774  130659246.53346      -358.2624         39.0004
  23694838.7424  124517185.91347      3199.8244         43.7004
 11 10 21 21  1  6.0000000  0 11G13G32G17G20G04G07G23G31G10G30G02
  20145728.4384  105866451.02648       781.4534         50.0004
  24844787.4844  130560415.08547     -2989.2074         43.0004
  24623394.539   129396822.452 7     -3161.477          42.100
  22190729.4384  116613422.01047     -2752.1294         47.7004
  20886464.4144  109759045.60848       519.6994         50.0004
  23959694.117   125909152.619 7      3720.832          43.700
  20451227.5784  107472035.48148     -1008.4884         51.3004
  25343844.883   133182742.145 6     -3275.285          40.400
  21877596.4144  114967730.81847      2620.9574         47.6004
  24863692.7974  130659605.34546      -358.7974         39.2004
  23694229.6484  124513986.53847      3199.4774         44.1004
 11 10 21 21  1  7.0000000  0 11G13G32G17G20G04G07G23G31G10G30G02
  20145579.5474  105865670.10048       780.5314         49.6004
  24845356.4064  130563404.60147     -2989.6254         42.9004
  24623996.047   129399984.205 7     -3161.930          42.000
  22191252.7734  116616174.41848     -2752.6374         48.0004
  20886365.7664  109758526.41248       518.8014         50.4004
  23958986.539   125905431.989 7      3720.457          43.900
  20451419.5554  107473044.35348     -1009.2544         51.3004
  25344467.891   133186017.837 6     -3275.852          40.100
  21877097.7734  114965110.16247      2620.3754         47.8004
  24863761.9924  130659964.77146      -360.0084         39.5004
  23693620.8204  124510787.38147      3198.8134         43.2004
 11 10 21 21  1  8.0000000  0 11G13G32G17G20G04G07G23G31G10G30G02
  20145430.6954  105864889.65948       779.8914         49.4004
  24845925.1024  130566394.13847     -2989.8404         42.1004
  24624598.148   129403145.985 7     -3162.117          42.100
  22191776.7344  116618927.01548     -2752.8914         48.1004
  20886266.8674  109758007.83348       517.9884         50.0004
  23958278.523   125901711.447 7      3720.176          43.900
  20451611.2344  107474053.60448     -1009.6874         51.0004
  25345091.141   133189293.691 6     -3276.230          40.000
  21876599.0634  114962489.69948      2620.0984         48.2004
  24863830.7664  130660324.78546      -360.5474         40.1004
  23693012.6724  124507588.46947      3198.5634         43.5004
 11 10 21 21  1  9.0000000  0 11G13G32G17G20G04G07G23G31G10G30G02
  20145282.6564  105864109.75948       779.6644         49.1004
  24846494.1094  130569383.71646     -2989.5354         41.7004
  24625200.000   129406307.839 7     -3161.895          42.500
  22192300.3204  116621679.91348     -2752.9734         48.2004
  20886168.3594  109757489.89548       517.7734         50.0004
  23957570.406   125897990.983 7      3720.445          42.700
  20451803.8834  107475063.30948     -1009.8484         51.0004
  25345715.016   133192569.805 6     -3276.195          39.900
  21876100.3524  114959869.51047      2620.1374         47.5004
  24863898.9384  130660685.45346      -360.9614         39.4004
  23692403.6024  124504389.84247      3198.5554         43.8004
 11 10 21 21  1 10.0000000  0 11G13G32G17G20G04G07G23G31G10G30G02
  20145134.3444  105863330.41248       778.9454         49.2004
  24847062.8284  130572373.36946     -2989.8674         41.8004
  24625801.313   129409469.785 7     -3162.172          42.300
  22192824.1804  116624433.06648     -2753.4374         48.2004
  20886069.8754  109756972.62748       516.8954         49.6004
  23956862.781   125894270.654 7      3720.063          42.900
  20451995.9454  107476073.49048     -1010.5624         51.1004
  25346338.148   133195846.158 6     -3276.660          39.800
  21875602.2504  114957249.58747      2619.6054         47.3004
  24863968.1174  130661046.75846      -361.8554         39.4004
  23691794.5944  124501191.51447      3198.0124         43.6004
 11 10 21 21  1 11.0000000  0 11G13G32G17G20G04G07G23G31G10G30G02
  20144985.8984  105862551.66148       778.5084         49.1004
  24847631.4224  130575363.17346     -2989.7934         41.9004
  24626403.438   129412631.857 6     -3162.062          41.100
  22193348.4694  116627186.53148     -2753.6024         48.2004
  20885971.6804  109756456.09148       516.2384         49.7004
  23956154.422   125890550.470 7      3720.145          42.800
  20452188.1804  107477084.15048     -1010.7704         50.9004
  25346961.766   133199122.814 6     -3276.715          40.300
  21875103.2814  114954629.98647      2619.5434         47.2004
  24864036.3754  130661408.77346      -362.3094         39.6004
  23691186.8204  124497993.56047      3197.8484         43.2004
 11 10 21 21  1 12.0000000  0 11G13G32G17G20G04G07G23G31G10G30G02
  20144838.1954  105861773.45348       777.8404         49.4004
  24848201.1024  130578353.08646     -2990.0624         41.9004
  24627004.688   129415794.038 6     -3162.277          40.900
  22193871.8134  116629940.27548     -2753.9774         48.4004
  20885873.2814  109755940.19448       515.4964         50.0004
  23955446.414   125886830.430 7      3719.902          43.000
  20452380.6724  107478095.29248     -1011.4104         50.8004
  25347585.352   133202399.741 6     -3277.027          39.900
  21874604.9844  114952010.63047      2619.2544         47.2004
  24864105.8364  130661771.47046      -363.0824         39.6004
  23690576.9384  124494795.87547      3197.4774         42.7004
 11 10 21 21  1 13.0000000  0 11G13G32G17G20G04G07G23G31G10G30G02
  20144690.0784  105860995.82948       777.3834         49.5004
  24848769.9224  130581343.08847     -2990.2504         42.3004
  24627605.586   129418956.335 6     -3162.359          40.700
  22194396.1804  116632694.33848     -2754.3444         48.0004
  20885775.4454  109755425.02248       514.7774         50.1004
  23954738.625   125883110.542 7      3719.793          42.900
  20452573.3444  107479106.92848     -1011.9304         51.0004
  25348209.359   133205676.967 6     -3277.547          39.600
  21874106.7584  114949391.60848      2618.8364         48.0004
  24864174.8674  130662134.83746      -363.8984         39.4004
  23689969.5634  124491598.55547      3197.1174         43.3004
 11 10 21 21  1 14.0000000  0 11G13G32G17G20G04G07G23G31G10G30G02
  20144542.3284  105860218.69948       777.0044         49.4004
  24849338.8054  130584333.08147     -2989.9184         42.2004
  24628207.469   129422118.639 6     -3162.184          40.900
  22194920.5394  116635448.59748     -2754.3324         48.0004
  20885677.4614  109754910.40348       514.4144         50.2004
  23954031.539   125879390.697 7      3719.926          43.200
  20452765.8754  107480118.94748     -1012.1524         51.4004
  25348832.805   133208954.345 6     -3277.250          39.800
  21873608.4304  114946772.77847      2618.8794         47.8004
  24864243.8754  130662498.79646      -364.2034         39.6004
  23689361.3054  124488401.46047      3197.0474         44.0004
 11 10 21 21  1 15.0000000  0 11G13G32G17G20G04G07G23G31G10G30G02
  20144394.3754  105859442.24548       776.3094         49.5004
  24849908.1094  130587323.29147     -2990.1804         42.5004
  24628809.844   129425281.203 6     -3162.406          41.100
  22195444.5864  116638203.24047     -2754.7074         47.9004
  20885579.8444  109754396.58148       513.5594         50.3004
  23953323.313   125875671.127 7      3719.680          43.100
  20452958.1484  107481131.54548     -1012.6844         51.2004
  25349457.000   133212232.128 6     -3277.930          39.700
  21873110.0944  114944154.35647      2618.3984         47.8004
  24864313.5634  130662863.56246      -364.9774         39.4004
  23688752.8674  124485204.80047      3196.6214         43.1004
